[{"icao":"LSGB","iata":"","name":"Bex Airport","city":"Bex","state":"Vaud","country":"CH","elevation":1312,"lat":46.2583007813,"lon":6.9863901138,"tz":"Europe/Zurich"},{"icao":"LSGC","iata":"","name":"Les Eplatures Airport","city":"La Chaux-de-Fonds","state":"Neuchatel","country":"CH","elevation":3368,"lat":47.0839004517,"lon":6.792840004,"tz":"Europe/Zurich"},{"icao":"LSGE","iata":"","name":"Ecuvillens Airport","city":"","state":"Fribourg","country":"CH","elevation":2293,"lat":46.7550010681,"lon":7.0761098862,"tz":"Europe/Zurich"},{"icao":"LSGG","iata":"GVA","name":"Geneva Cointrin International Airport","city":"Geneva","state":"Geneva","country":"CH","elevation":1411,"lat":46.2380981445,"lon":6.1089501381,"tz":"Europe/Zurich"},{"icao":"LSGK","iata":"","name":"Saanen Airport","city":"Saanen","state":"Bern","country":"CH","elevation":3307,"lat":46.4874992371,"lon":7.2508301735,"tz":"Europe/Zurich"},{"icao":"LSGL","iata":"QLS","name":"Lausanne-la Blecherette Airport","city":"Lausanne","state":"Vaud","country":"CH","elevation":2041,"lat":46.54529953,"lon":6.6166701317,"tz":"Europe/Zurich"},{"icao":"LSGN","iata":"QNC","name":"Neuchatel Airport","city":"","state":"Neuchatel","country":"CH","elevation":1427,"lat":46.9575004578,"lon":6.8647198677,"tz":"Europe/Zurich"},{"icao":"LSGP","iata":"","name":"La Cote Airport","city":"La Cote","state":"Vaud","country":"CH","elevation":1352,"lat":46.4063987732,"lon":6.2580599785,"tz":"Europe/Zurich"},{"icao":"LSGR","iata":"","name":"Reichenbach Air Base","city":"","state":"Bern","country":"CH","elevation":2385,"lat":46.6136016846,"lon":7.6777801514,"tz":"Europe/Zurich"},{"icao":"LSGS","iata":"SIR","name":"Sion Airport","city":"Sion","state":"Valais","country":"CH","elevation":1585,"lat":46.2196006775,"lon":7.3267598152,"tz":"Europe/Zurich"},{"icao":"LSGT","iata":"","name":"Gruyeres Airport","city":"","state":"Fribourg","country":"CH","elevation":2257,"lat":46.5942001343,"lon":7.0944399834,"tz":"Europe/Zurich"},{"icao":"LSGY","iata":"","name":"Yverdon-les-Bains Airport","city":"Yverdon-les-Bains","state":"Vaud","country":"CH","elevation":1421,"lat":46.7619018555,"lon":6.6133298874,"tz":"Europe/Zurich"},{"icao":"LSMA","iata":"","name":"Alpnach Air Base","city":"Alpnach","state":"Obwalden","country":"CH","elevation":1460,"lat":46.943901062,"lon":8.2841701508,"tz":"Europe/Zurich"},{"icao":"LSMD","iata":"","name":"Dubendorf Airport","city":"Zurich","state":"Zurich","country":"CH","elevation":1470,"lat":47.398601532,"lon":8.648229599,"tz":"Europe/Zurich"},{"icao":"LSME","iata":"","name":"Emmen Airport","city":"","state":"Lucerne","country":"CH","elevation":1400,"lat":47.0923995972,"lon":8.3051204681,"tz":"Europe/Zurich"},{"icao":"LSMF","iata":"","name":"Mollis Airport","city":"","state":"Glarus","country":"CH","elevation":1485,"lat":47.0788993835,"lon":9.0648298264,"tz":"Europe/Zurich"},{"icao":"LSMI","iata":"ZIN","name":"Interlaken Air Base","city":"","state":"Bern","country":"CH","elevation":0,"lat":46.6766014099,"lon":7.8790798187,"tz":"Europe/Zurich"},{"icao":"LSMJ","iata":"","name":"Turtman Air Base","city":"Turtman","state":"Valais","country":"CH","elevation":0,"lat":46.3026008606,"lon":7.7139501572,"tz":"Europe/Zurich"},{"icao":"LSML","iata":"","name":"Lodrino Air Base","city":"Lodrino","state":"Ticino","country":"CH","elevation":0,"lat":46.2958984375,"lon":8.9921302795,"tz":"Europe/Zurich"},{"icao":"LSMM","iata":"","name":"Meiringen Airport","city":"","state":"Bern","country":"CH","elevation":1895,"lat":46.7433013916,"lon":8.1099996567,"tz":"Europe/Zurich"},{"icao":"LSMP","iata":"","name":"Payerne Airport","city":"","state":"Vaud","country":"CH","elevation":1465,"lat":46.8432006836,"lon":6.9150600433,"tz":"Europe/Zurich"},{"icao":"LSPA","iata":"","name":"Amlikon Glider Airport","city":"","state":"Thurgau","country":"CH","elevation":1371,"lat":47.5741996765,"lon":9.0474996567,"tz":"Europe/Zurich"},{"icao":"LSPD","iata":"","name":"Dittingen Airport","city":"","state":"Basel-Landschaft","country":"CH","elevation":1758,"lat":47.4385986328,"lon":7.4913902283,"tz":"Europe/Zurich"},{"icao":"LSPF","iata":"","name":"Schaffhausen Airport","city":"","state":"Schaffhausen","country":"CH","elevation":1519,"lat":47.6906013489,"lon":8.5269403458,"tz":"Europe/Zurich"},{"icao":"LSPG","iata":"","name":"Kagiswil Airport","city":"","state":"Obwalden","country":"CH","elevation":1525,"lat":46.9082984924,"lon":8.2541704178,"tz":"Europe/Zurich"},{"icao":"LSPH","iata":"","name":"Winterthur Airport","city":"Winterthur","state":"Zurich","country":"CH","elevation":1506,"lat":47.5149993896,"lon":8.7719402313,"tz":"Europe/Zurich"},{"icao":"LSPK","iata":"","name":"Hasenstrick Airport","city":"","state":"Zurich","country":"CH","elevation":0,"lat":47.2799987793,"lon":8.881939888,"tz":"Europe/Zurich"},{"icao":"LSPL","iata":"","name":"Langenthal Airport","city":"","state":"Bern","country":"CH","elevation":1575,"lat":47.182800293,"lon":7.7413902283,"tz":"Europe/Zurich"},{"icao":"LSPM","iata":"","name":"Ambri Airport","city":"Quinto","state":"Ticino","country":"CH","elevation":3241,"lat":46.5125007629,"lon":8.6897802353,"tz":"Europe/Zurich"},{"icao":"LSPN","iata":"","name":"Triengen Airport","city":"","state":"Lucerne","country":"CH","elevation":1594,"lat":47.2266998291,"lon":8.0780601501,"tz":"Europe/Zurich"},{"icao":"LSPO","iata":"","name":"Olten Airport","city":"","state":"Solothurn","country":"CH","elevation":0,"lat":47.3443984985,"lon":7.8894400597,"tz":"Europe/Zurich"},{"icao":"LSPU","iata":"","name":"Muenster Aero Airport","city":"","state":"Valais","country":"CH","elevation":4380,"lat":46.4803009033,"lon":8.2633304596,"tz":"Europe/Zurich"},{"icao":"LSPV","iata":"","name":"Wangen-Lachen Airport","city":"","state":"Schwyz","country":"CH","elevation":1335,"lat":47.20470047,"lon":8.8675003052,"tz":"Europe/Zurich"},{"icao":"LSTA","iata":"","name":"Raron Airport","city":"Raron","state":"Valais","country":"CH","elevation":2029,"lat":46.3036003113,"lon":7.8233299255,"tz":"Europe/Zurich"},{"icao":"LSTB","iata":"","name":"Bellechasse Airport","city":"","state":"Fribourg","country":"CH","elevation":1421,"lat":46.9794006348,"lon":7.1322197914,"tz":"Europe/Zurich"},{"icao":"LSTO","iata":"","name":"Motiers Airport","city":"","state":"Neuchatel","country":"CH","elevation":2402,"lat":46.9166984558,"lon":6.6149997711,"tz":"Europe/Zurich"},{"icao":"LSTR","iata":"","name":"Montricher Airport","city":"","state":"Vaud","country":"CH","elevation":2178,"lat":46.5903015137,"lon":6.4005599022,"tz":"Europe/Zurich"},{"icao":"LSTS","iata":"","name":"St Stephan Airport","city":"","state":"Bern","country":"CH","elevation":3304,"lat":46.4973983765,"lon":7.4125699997,"tz":"Europe/Zurich"},{"icao":"LSTZ","iata":"","name":"Zweisimmen Airport","city":"","state":"Bern","country":"CH","elevation":3068,"lat":46.5525016785,"lon":7.3805599213,"tz":"Europe/Zurich"},{"icao":"LSXV","iata":"","name":"San Vittore Airport","city":"","state":"Grisons","country":"CH","elevation":869,"lat":46.2341995239,"lon":9.0941696167,"tz":"Europe/Zurich"},{"icao":"LSZA","iata":"LUG","name":"Lugano Airport","city":"Lugano","state":"Ticino","country":"CH","elevation":915,"lat":46.0042991638,"lon":8.9105796814,"tz":"Europe/Zurich"},{"icao":"LSZB","iata":"BRN","name":"Bern Belp Airport","city":"Bern","state":"Bern","country":"CH","elevation":1674,"lat":46.914100647,"lon":7.4971499443,"tz":"Europe/Zurich"},{"icao":"LSZC","iata":"BXO","name":"Buochs Airport","city":"Buochs","state":"Nidwalden","country":"CH","elevation":1475,"lat":46.9744444444,"lon":8.3969444444,"tz":"Europe/Zurich"},{"icao":"LSZE","iata":"","name":"Bad Ragaz Airport","city":"","state":"Saint-Gallen","country":"CH","elevation":1617,"lat":47.0149993896,"lon":9.4819402695,"tz":"Europe/Zurich"},{"icao":"LSZF","iata":"","name":"Birrfeld Airport","city":"","state":"Aargau","country":"CH","elevation":1300,"lat":47.4435997009,"lon":8.2336101532,"tz":"Europe/Zurich"},{"icao":"LSZG","iata":"ZHI","name":"Grenchen Airport","city":"","state":"Solothurn","country":"CH","elevation":1411,"lat":47.1815986633,"lon":7.4171900749,"tz":"Europe/Zurich"},{"icao":"LSZH","iata":"ZRH","name":"Zurich Airport","city":"Zurich","state":"Zurich","country":"CH","elevation":1416,"lat":47.4646987915,"lon":8.5491695404,"tz":"Europe/Zurich"},{"icao":"LSZI","iata":"","name":"Fricktal-Schupfart Airport","city":"","state":"Aargau","country":"CH","elevation":1788,"lat":47.5088996887,"lon":7.9499998093,"tz":"Europe/Zurich"},{"icao":"LSZJ","iata":"","name":"Courtelary Airport","city":"","state":"Bern","country":"CH","elevation":2247,"lat":47.1836013794,"lon":7.0908298492,"tz":"Europe/Zurich"},{"icao":"LSZK","iata":"","name":"Speck-Fehraltorf Airport","city":"","state":"Zurich","country":"CH","elevation":1748,"lat":47.3763999939,"lon":8.7574996948,"tz":"Europe/Zurich"},{"icao":"LSZL","iata":"ZJI","name":"Locarno Airport","city":"","state":"Ticino","country":"CH","elevation":650,"lat":46.1608009338,"lon":8.8786096573,"tz":"Europe/Zurich"},{"icao":"LSZM","iata":"MLH","name":"EuroAirport Basel-Mulhouse-Freiburg Airport","city":"Bale/Mulhouse","state":"Grand-Est","country":"CH","elevation":885,"lat":47.5895996094,"lon":7.5299100876,"tz":"Europe/Paris"},{"icao":"LSZN","iata":"","name":"Hausen am Albis Airport","city":"","state":"Zurich","country":"CH","elevation":1928,"lat":47.2386016846,"lon":8.5155601501,"tz":"Europe/Zurich"},{"icao":"LSZO","iata":"","name":"Luzern-Beromunster Airport","city":"Lucerne","state":"Lucerne","country":"CH","elevation":2146,"lat":47.1899986267,"lon":8.2047195435,"tz":"Europe/Zurich"},{"icao":"LSZP","iata":"","name":"Biel-Kappelen Airport","city":"","state":"Bern","country":"CH","elevation":1437,"lat":47.0891990662,"lon":7.2899999619,"tz":"Europe/Zurich"},{"icao":"LSZQ","iata":"","name":"Bressaucourt Airport","city":"Bressaucourt","state":"Jura","country":"CH","elevation":1866,"lat":47.392677,"lon":7.028648,"tz":"Europe/Zurich"},{"icao":"LSZR","iata":"ACH","name":"St Gallen Altenrhein Airport","city":"Altenrhein","state":"Saint-Gallen","country":"CH","elevation":1306,"lat":47.4850006104,"lon":9.5607700348,"tz":"Europe/Zurich"},{"icao":"LSZS","iata":"SMV","name":"Samedan Airport","city":"","state":"Grisons","country":"CH","elevation":5600,"lat":46.5340995789,"lon":9.8841104507,"tz":"Europe/Zurich"},{"icao":"LSZT","iata":"","name":"Lommis Airfield","city":"Lommis","state":"Thurgau","country":"CH","elevation":1539,"lat":47.5243988037,"lon":9.0030603409,"tz":"Europe/Zurich"},{"icao":"LSZU","iata":"","name":"Buttwil Airport","city":"","state":"Aargau","country":"CH","elevation":2372,"lat":47.2647018433,"lon":8.3024997711,"tz":"Europe/Zurich"},{"icao":"LSZV","iata":"","name":"Sitterdorf Airport","city":"","state":"Thurgau","country":"CH","elevation":1660,"lat":47.5088996887,"lon":9.2627801895,"tz":"Europe/Zurich"},{"icao":"LSZW","iata":"","name":"Thun Airport","city":"Thun","state":"Bern","country":"CH","elevation":1837,"lat":46.756401062,"lon":7.6005601883,"tz":"Europe/Zurich"},{"icao":"LSZX","iata":"","name":"Schanis Airport","city":"","state":"Saint-Gallen","country":"CH","elevation":1365,"lat":47.1716995239,"lon":9.039440155,"tz":"Europe/Zurich"}]
